     2.10           OBSERVATION DATA    G: GPS              RINEX VERSION / TYPE
Not known                                                   COMMENT             
toRINEX 1           Not known           20181125 204302 LCL PGM / RUN BY / DATE 
Not known                                                   MARKER NAME         
1                                                           MARKER NUMBER       
Not known           Not known                               OBSERVER / AGENCY   
1                   LGE google Nexus 5X Android 7.1.2 SDK 25REC # / TYPE / VERS 
1                   Unknown                                 ANT # / TYPE        
  4848592.3900  -327600.6937  4118307.0587                  APPROX POSITION XYZ 
        0.0000        0.0000        0.0000                  ANTENNA: DELTA H/E/N
     1     0     0                                          WAVELENGTH FACT L1/2
     4    C1    L1    D1    S1                              # / TYPES OF OBSERV 
     1.000                                                  INTERVAL            
  2018    11    25    19    43   18.3999770                 TIME OF FIRST OBS   
     1                                                      RCV CLOCK OFFS APPL 
                                                            END OF HEADER       
 18 11 25 19 43 18.3999770  0  8G10G12G13G15G17G19G24G25            
  23247443.929 3         0.000 3      -137.303 3        19.100 3
  20463631.723 3         0.000 3     -1704.582 3        19.300 3
  23424221.649 6         0.000 6      3383.015 6        38.700 6
  21280347.022 4         0.000 4      2336.197 4        28.200 4
  23829177.104 3         0.000 3      1512.728 3        23.200 3
  22324268.131 5         0.000 5      -390.808 5        31.200 5
  20343932.389 2         0.000 2       126.502 2        17.300 2
  23135565.581 3         0.000 3     -3256.114 3        23.200 3
 18 11 25 19 43 19.3999770  1  8G10G12G13G15G17G19G24G25            
  23247377.376 3         0.000 3      -128.953 3        19.600 3
  20463262.078 3         0.000 3     -1694.981 3        19.500 3
  23424862.305 6         0.000 6      3388.764 6        37.400 6
  21280806.005 4         0.000 4      2339.797 4        27.500 4
  23829477.496 3         0.000 3      1517.730 3        23.700 3
  22324195.881 4         0.000 4      -383.707 4        29.900 4
  20343956.072 2         0.000 2       127.052 2        17.000 2
  23134960.300 3         0.000 3     -3253.560 3        23.000 3
 18 11 25 19 43 20.3999770  1  8G10G12G13G15G17G19G24G25            
  23247359.988 3         0.000 3      -132.653 3        20.700 3
  20462966.183 3         0.000 3     -1704.682 3        22.000 3
  23425506.859 6         0.000 6      3384.465 6        38.200 6
  21281237.406 5         0.000 5      2337.495 5        30.200 5
  23829711.634 3         0.000 3      1513.127 3        22.200 3
  22324118.534 4         0.000 4      -387.107 4        29.100 4
  20343966.265 2         0.000 2       127.652 2        16.400 2
  23134341.229 3         0.000 3     -3256.161 3        23.600 3
 18 11 25 19 43 21.3999770  1  8G10G12G13G15G17G19G24G25            
  23247303.926 3         0.000 3      -134.803 3        18.900 3
  20462679.582 3         0.000 3     -1711.582 3        21.900 3
  23426149.914 6         0.000 6      3379.315 6        38.300 6
  21281687.994 5         0.000 5      2333.942 5        30.200 5
  23830024.617 4         0.000 4      1512.827 4        24.000 4
  22324053.779 4         0.000 4      -391.657 4        29.500 4
  20343989.949 2         0.000 2       127.652 2        16.300 2
  23133725.755 4         0.000 4     -3260.565 4        25.100 4
 18 11 25 19 43 22.3999770  1  8G10G12G13G15G17G19G24G25            
  23247246.666 3         0.000 3      -134.552 3        18.800 3
  20462329.124 3         0.000 3     -1705.533 3        22.700 3
  23426792.969 6         0.000 6      3381.764 6        38.400 6
  21282119.995 5         0.000 5      2335.892 5        30.800 5
  23830302.825 3         0.000 3      1510.478 3        22.500 3
  22323983.928 4         0.000 4      -389.408 4        29.800 4
  20344014.232 2         0.000 2       127.652 2        16.300 2
  23133072.807 3         0.000 3     -3257.364 3        21.700 3
 18 11 25 19 43 22.3999770  3  1
P_43_09.ORD                                                 MARKER NAME         
 18 11 25 19 43 25.3999770  1  9G10G12G13G15G17G19G20G24G25         
  23247243.069 2         0.000 2      -135.553 2        16.900 2
  20461379.382 3         0.000 3     -1707.630 3        22.800 3
  23428726.330 6         0.000 6      3380.466 6        38.700 6
  21283463.665 5         0.000 5      2335.246 5        31.600 5
  23831167.126 3         0.000 3      1511.077 3        23.900 3
  22323770.475 5         0.000 5      -388.758 5        31.100 5
  23142746.510 2         0.000 2      1668.332 2        16.400 2
  20344087.082 2         0.000 2       127.652 2        16.300 2
  23131232.081 4         0.000 4     -3260.113 4        24.100 4
 18 11 25 19 43 26.3999770  1  9G10G12G13G15G17G19G20G24G25         
  23247225.681 2         0.000 2      -135.252 2        16.100 2
  20461024.428 3         0.000 3     -1704.335 3        19.800 3
  23429369.685 6         0.000 6      3385.915 6        38.500 6
  21283901.961 5         0.000 5      2339.944 5        31.500 5
  23831465.120 4         0.000 4      1511.177 4        24.500 4
  22323687.433 5         0.000 5      -383.007 5        32.600 5
  23143059.493 2         0.000 2      1668.479 2        16.400 2
  20344111.365 2         0.000 2       127.652 2        16.300 2
  23130619.605 3         0.000 3     -3256.660 3        22.300 3
 18 11 25 19 43 27.3999770  1  9G10G12G13G15G17G19G20G24G25         
  23247144.737 3         0.000 3      -128.852 3        18.100 3
  20460693.457 3         0.000 3     -1703.284 3        19.900 3
  23430016.937 6         0.000 6      3386.063 6        39.200 6
  21284348.652 5         0.000 5      2341.447 5        31.600 5
  23831725.040 3         0.000 3      1515.928 3        23.700 3
  22323620.279 5         0.000 5      -380.707 5        30.600 5
  23143382.670 2         0.000 2      1669.131 2        16.200 2
  20344135.648 2         0.000 2       127.652 2        16.300 2
  23129987.943 3         0.000 3     -3258.063 3        20.600 3
 18 11 25 19 43 28.3999770  1  9G10G12G13G15G17G19G20G24G25         
  23247103.365 3         0.000 3      -140.353 3        19.800 3
  20460353.792 3         0.000 3     -1710.731 3        20.800 3
  23430660.291 6         0.000 6      3377.013 6        39.800 6
  21284797.441 5         0.000 5      2332.597 5        33.000 5
  23832033.527 3         0.000 3      1513.831 3        23.600 3
  22323545.331 5         0.000 5      -390.357 5        30.900 5
  23143704.946 2         0.000 2      1669.331 2        16.100 2
  20344321.519 2         0.000 2       132.152 2        12.700 2
  23129365.573 3         0.000 3     -3264.312 3        22.400 3
 18 11 25 19 43 29.3999770  1  9G10G12G13G15G17G19G20G24G25         
  23247055.998 3         0.000 3      -132.453 3        18.700 3
  20460051.001 3         0.000 3     -1708.334 3        20.100 3
  23431299.449 6         0.000 6      3379.667 6        39.500 6
  21285240.535 5         0.000 5      2333.942 5        32.500 5
  23832321.927 4         0.000 4      1510.731 4        25.300 4
  22323473.381 5         0.000 5      -387.758 5        31.200 5
  23144022.127 2         0.000 2      1668.984 2        16.000 2
  20344346.702 2         0.000 2       132.152 2        12.700 2
  23128752.198 3         0.000 3     -3262.861 3        23.400 3
 18 11 25 19 43 29.3999770  4  1
END OF FILE                                                 COMMENT             
